{"type":"FeatureCollection","features":[{"type":"Feature","id":0,"geometry":{"type":"Point","coordinates":[38.72283523798356,14.141018321534689,2208,null]},"properties":{"FID":0,"SN":1,"Name":"Me'eraf","X_Easting":470087,"Y_Northing":1563340,"Z":2208,"Woreda_Nam":"Aksum","Attra_Type":"Historical","NEAR_FID":3967,"NEAR_DIST":87.435133386499999}},{"type":"Feature","id":1,"geometry":{"type":"Point","coordinates":[38.72946138328561,14.147825305505252,2184,null]},"properties":{"FID":1,"SN":2,"Name":"Berik Awdi","X_Easting":470803,"Y_Northing":1564092,"Z":2184,"Woreda_Nam":"Aksum","Attra_Type":"Archaeological","NEAR_FID":2162,"NEAR_DIST":387.67753950000002}},{"type":"Feature","id":2,"geometry":{"type":"Point","coordinates":[38.823815833384202,13.621738419580614,2000,null]},"properties":{"FID":2,"SN":3,"Name":"Mariam Tamba","X_Easting":480943,"Y_Northing":1505900,"Z":2000,"Woreda_Nam":"Kola Temben","Attra_Type":"Monastery","NEAR_FID":2982,"NEAR_DIST":12.1125741484}},{"type":"Feature","id":3,"geometry":{"type":"Point","coordinates":[39.128285478905205,13.639192147686572,2508,null]},"properties":{"FID":3,"SN":4,"Name":"Melfa Mariam","X_Easting":513875,"Y_Northing":1507827,"Z":2508,"Woreda_Nam":"Degua Temben","Attra_Type":" Church","NEAR_FID":2658,"NEAR_DIST":190.80808100100001}},{"type":"Feature","id":4,"geometry":{"type":"Point","coordinates":[38.879057517174495,14.170407183423862,1981,null]},"properties":{"FID":4,"SN":5,"Name":"Aba Fremonna","X_Easting":486949,"Y_Northing":1566576,"Z":1981,"Woreda_Nam":"Adwa","Attra_Type":"Historical","NEAR_FID":1315,"NEAR_DIST":24.5736399822}},{"type":"Feature","id":5,"geometry":{"type":"Point","coordinates":[39.144728613729448,13.64597383104357,2600,null]},"properties":{"FID":5,"SN":6,"Name":"Geza Gebrehara","X_Easting":515653,"Y_Northing":1508578,"Z":2600,"Woreda_Nam":"Kola Temben","Attra_Type":"Historical","NEAR_FID":1465,"NEAR_DIST":259.86024898800002}},{"type":"Feature","id":6,"geometry":{"type":"Point","coordinates":[39.160552686613897,13.62466060233452,2618,null]},"properties":{"FID":6,"SN":7,"Name":"Abune Aregawi /Zeji/","X_Easting":517366,"Y_Northing":1506222,"Z":2618,"Woreda_Nam":"Kola Temben","Attra_Type":"Monastery","NEAR_FID":1506,"NEAR_DIST":509.27375448100003}},{"type":"Feature","id":7,"geometry":{"type":"Point","coordinates":[39.077084419488635,13.560075241157547,1900,null]},"properties":{"FID":7,"SN":8,"Name":"Chik Silassie","X_Easting":508340,"Y_Northing":1499075,"Z":1900,"Woreda_Nam":"Tanqua Melash","Attra_Type":"Monastery","NEAR_FID":3628,"NEAR_DIST":88.250704584100006}},{"type":"Feature","id":8,"geometry":{"type":"Point","coordinates":[39.226367042589928,13.602917124037306,0,null]},"properties":{"FID":8,"SN":9,"Name":"Giorgis Rubakisa","X_Easting":524487,"Y_Northing":1503823,"Z":0,"Woreda_Nam":"Kola Temben","Attra_Type":" Church","NEAR_FID":2650,"NEAR_DIST":2.5166271578499999}},{"type":"Feature","id":9,"geometry":{"type":"Point","coordinates":[39.109000866387682,13.663913795707055,2546,null]},"properties":{"FID":9,"SN":10,"Name":"Endaba Selama","X_Easting":511788,"Y_Northing":1510560,"Z":2546,"Woreda_Nam":"Kola Temben","Attra_Type":"Monastery","NEAR_FID":1465,"NEAR_DIST":57.926380506800001}},{"type":"Feature","id":10,"geometry":{"type":"Point","coordinates":[39.16864529351961,13.706966466477887,2300,null]},"properties":{"FID":10,"SN":11,"Name":"Mereta Abye Egzi","X_Easting":518235,"Y_Northing":1515325,"Z":2300,"Woreda_Nam":"Kola Temben","Attra_Type":"Monastery","NEAR_FID":2632,"NEAR_DIST":2903.73754706}},{"type":"Feature","id":11,"geometry":{"type":"Point","coordinates":[39.207868988531636,13.697813066266489,2209,null]},"properties":{"FID":11,"SN":12,"Name":"Enda Abune Abiyezgi","X_Easting":522477,"Y_Northing":1514316,"Z":2209,"Woreda_Nam":"Kola Temben","Attra_Type":"Monastery","NEAR_FID":2630,"NEAR_DIST":149.78881421400001}},{"type":"Feature","id":12,"geometry":{"type":"Point","coordinates":[39.153086096601818,13.658853988886957,2480,null]},"properties":{"FID":12,"SN":13,"Name":"Medhanealem Harekuwa","X_Easting":516556,"Y_Northing":1510003,"Z":2480,"Woreda_Nam":"Kola Temben","Attra_Type":"Monastery","NEAR_FID":2659,"NEAR_DIST":490.34464817600002}},{"type":"Feature","id":13,"geometry":{"type":"Point","coordinates":[39.095715501748764,13.669425997149457,2444,null]},"properties":{"FID":13,"SN":14,"Name":"Enda Amanuel","X_Easting":510351,"Y_Northing":1511169,"Z":2444,"Woreda_Nam":" Kola Temben","Attra_Type":" Church","NEAR_FID":1465,"NEAR_DIST":213.815713531}},{"type":"Feature","id":14,"geometry":{"type":"Point","coordinates":[39.014117150729902,13.619033478795082,1847,null]},"properties":{"FID":14,"SN":15,"Name":"Mai Lomin /Seasonal & Potential/","X_Easting":501527,"Y_Northing":1505594,"Z":1847,"Woreda_Nam":"Abiyi Adi","Attra_Type":" Natural Recreation","NEAR_FID":1218,"NEAR_DIST":331.18560500699999}},{"type":"Feature","id":15,"geometry":{"type":"Point","coordinates":[38.717347323395458,14.128163533356098,2152,null]},"properties":{"FID":15,"SN":16,"Name":"Throne Bases/Menagesha/","X_Easting":469493,"Y_Northing":1561919,"Z":2152,"Woreda_Nam":"Aksum","Attra_Type":"Archaeological","NEAR_FID":445,"NEAR_DIST":35.307909470600002}},{"type":"Feature","id":16,"geometry":{"type":"Point","coordinates":[38.972234140214582,13.724066966476343,2100,null]},"properties":{"FID":16,"SN":17,"Name":"Gebriel Wuqien","X_Easting":496998,"Y_Northing":1517210,"Z":2100,"Woreda_Nam":"Kola Temben","Attra_Type":"Monastery","NEAR_FID":4188,"NEAR_DIST":82.775533097600004}},{"type":"Feature","id":17,"geometry":{"type":"Point","coordinates":[39.146279811377184,13.732307845758347,1900,null]},"properties":{"FID":17,"SN":18,"Name":"Mariam Hibi'ito","X_Easting":515815,"Y_Northing":1518126,"Z":1900,"Woreda_Nam":"Kola Temben","Attra_Type":"Monastery","NEAR_FID":4199,"NEAR_DIST":4385.7980846}},{"type":"Feature","id":18,"geometry":{"type":"Point","coordinates":[38.949955071314463,13.714352133677282,2130,null]},"properties":{"FID":18,"SN":19,"Name":"Mariam Te'amina","X_Easting":494589,"Y_Northing":1516136,"Z":2130,"Woreda_Nam":"Abiyi","Attra_Type":"Monastery","NEAR_FID":3623,"NEAR_DIST":1695.55015392}},{"type":"Feature","id":19,"geometry":{"type":"Point","coordinates":[38.956932589964836,13.692552671254214,2100,null]},"properties":{"FID":19,"SN":20,"Name":"Kaka Arbaetu Ensissa","X_Easting":495343,"Y_Northing":1513725,"Z":2100,"Woreda_Nam":"Abiyi","Attra_Type":"Monastery","NEAR_FID":4187,"NEAR_DIST":611.12701595600004}},{"type":"Feature","id":20,"geometry":{"type":"Point","coordinates":[39.064699023506456,13.729304526603698,1800,null]},"properties":{"FID":20,"SN":21,"Name":"Eyesus Welegesa","X_Easting":506995,"Y_Northing":1517790,"Z":1800,"Woreda_Nam":"Kola Temben","Attra_Type":"Monastery","NEAR_FID":4209,"NEAR_DIST":2517.2341276000002}},{"type":"Feature","id":21,"geometry":{"type":"Point","coordinates":[39.0271383594498,13.655961000537964,2400,null]},"properties":{"FID":21,"SN":22,"Name":"Mariam Etsewto","X_Easting":502935,"Y_Northing":1509678,"Z":2400,"Woreda_Nam":"Kola Temben","Attra_Type":"Church","NEAR_FID":2646,"NEAR_DIST":2657.3916488}},{"type":"Feature","id":22,"geometry":{"type":"Point","coordinates":[39.186270262583164,13.692043271779886,2115,null]},"properties":{"FID":22,"SN":23,"Name":"Tensehe Kidane Mihret","X_Easting":520142,"Y_Northing":1513676,"Z":2115,"Woreda_Nam":"Kola Temben","Attra_Type":"Church","NEAR_FID":2632,"NEAR_DIST":595.92332911599999}},{"type":"Feature","id":23,"geometry":{"type":"Point","coordinates":[38.823815833384202,13.621738419580614,2000,null]},"properties":{"FID":23,"SN":24,"Name":"Teklehaimanot Tamba/Guya/","X_Easting":480943,"Y_Northing":1505900,"Z":2000,"Woreda_Nam":"Ambera","Attra_Type":"Monastery","NEAR_FID":2982,"NEAR_DIST":12.1125741484}},{"type":"Feature","id":24,"geometry":{"type":"Point","coordinates":[38.681754898131878,14.117094727430713,2165.4000000000001,null]},"properties":{"FID":24,"SN":25,"Name":"Rock Art Site","X_Easting":465649.78000000003,"Y_Northing":1560699.733,"Z":2165.4000000000001,"Woreda_Nam":"Aksum","Attra_Type":"Archaeological","NEAR_FID":923,"NEAR_DIST":668.08937280500004}},{"type":"Feature","id":25,"geometry":{"type":"Point","coordinates":[38.718233502392735,14.130822863316737,2151,null]},"properties":{"FID":25,"SN":26,"Name":"Archaeological Museum of Axum","X_Easting":469589,"Y_Northing":1562213,"Z":2151,"Woreda_Nam":"Aksum","Attra_Type":"Archaeological","NEAR_FID":2810,"NEAR_DIST":7.0344539854399999}},{"type":"Feature","id":26,"geometry":{"type":"Point","coordinates":[38.705899538126431,14.125138889755696,2130,null]},"properties":{"FID":26,"SN":27,"Name":"Dongur Palace","X_Easting":468257,"Y_Northing":1561586,"Z":2130,"Woreda_Nam":"Aksum","Attra_Type":"Archaeological","NEAR_FID":2361,"NEAR_DIST":119.384941549}},{"type":"Feature","id":27,"geometry":{"type":"Point","coordinates":[38.708411022121048,14.131887127701797,2286,null]},"properties":{"FID":27,"SN":28,"Name":"Bete Giorgis Hill-Ona Negast","X_Easting":468529,"Y_Northing":1562332,"Z":2286,"Woreda_Nam":"Aksum","Attra_Type":"Archaeological","NEAR_FID":1502,"NEAR_DIST":259.13108032000002}},{"type":"Feature","id":28,"geometry":{"type":"Point","coordinates":[38.721942623926154,14.135953882873828,2176,null]},"properties":{"FID":28,"SN":29,"Name":"Inscription/On the way to Kaleb and G.Meskel Tomb/","X_Easting":469990,"Y_Northing":1562780,"Z":2176,"Woreda_Nam":"Aksum","Attra_Type":"Archaeological","NEAR_FID":97,"NEAR_DIST":12.331987116000001}},{"type":"Feature","id":29,"geometry":{"type":"Point","coordinates":[38.726039008487312,14.125071118958919,2142,null]},"properties":{"FID":29,"SN":30,"Name":"Bazen Tomb","X_Easting":470430.71000000002,"Y_Northing":1561575.875,"Z":2142,"Woreda_Nam":"Aksum","Attra_Type":"Archaeological","NEAR_FID":244,"NEAR_DIST":12.837737841199999}},{"type":"Feature","id":30,"geometry":{"type":"Point","coordinates":[38.724191489521523,14.124883858785747,2161.8400000000001,null]},"properties":{"FID":30,"SN":31,"Name":"Hatsanu Daniel (Mibtak Fetli)","X_Easting":470231.277,"Y_Northing":1561555.398,"Z":2161.8400000000001,"Woreda_Nam":"Aksum","Attra_Type":"Archaeological","NEAR_FID":40,"NEAR_DIST":27.1925050971}},{"type":"Feature","id":31,"geometry":{"type":"Point","coordinates":[38.729247604493978,14.142246952677487,2244.3800000000001,null]},"properties":{"FID":31,"SN":32,"Name":"Kaleb and G/meskel's Tomb","X_Easting":470779.21600000001,"Y_Northing":1563475.075,"Z":2244.3800000000001,"Woreda_Nam":"Aksum","Attra_Type":"Archaeological","NEAR_FID":2608,"NEAR_DIST":33.396104287}},{"type":"Feature","id":32,"geometry":{"type":"Point","coordinates":[38.711776948232412,14.166072367322553,2018.5699999999899,null]},"properties":{"FID":32,"SN":33,"Name":"Adi Tsehafi Quarry site","X_Easting":468896.93400000001,"Y_Northing":1566112.358,"Z":2018.5699999999999,"Woreda_Nam":" Aksum","Attra_Type":"Archaeological","NEAR_FID":3966,"NEAR_DIST":34.562188669900003}},{"type":"Feature","id":33,"geometry":{"type":"Point","coordinates":[38.718861669176498,14.131763331113611,2157.1999999999898,null]},"properties":{"FID":33,"SN":34,"Name":"Main Steale Field","X_Easting":469656.92300000001,"Y_Northing":1562316.932,"Z":2157.1999999999998,"Woreda_Nam":"Aksum","Attra_Type":"Archaeological","NEAR_FID":179,"NEAR_DIST":44.2925728847}},{"type":"Feature","id":34,"geometry":{"type":"Point","coordinates":[38.792094837159652,14.076778057982287,2110,null]},"properties":{"FID":34,"SN":35,"Name":"Hawelti Melazo","X_Easting":477555.59000000003,"Y_Northing":1556227.51,"Z":2110,"Woreda_Nam":"Laelay Machew","Attra_Type":"Archaeological","NEAR_FID":51,"NEAR_DIST":557.27852654399999}},{"type":"Feature","id":35,"geometry":{"type":"Point","coordinates":[38.740950495347256,14.115612935091228,2116,null]},"properties":{"FID":35,"SN":36,"Name":"Hamed Gebez","X_Easting":472039,"Y_Northing":1560528,"Z":2116,"Woreda_Nam":"Aksum","Attra_Type":"Archaeological","NEAR_FID":323,"NEAR_DIST":40.111557648800002}},{"type":"Feature","id":36,"geometry":{"type":"Point","coordinates":[38.711254630929993,14.125190585771691,2151,null]},"properties":{"FID":36,"SN":37,"Name":"Axum Town-old","X_Easting":468835,"Y_Northing":1561591,"Z":2151,"Woreda_Nam":"Aksum Adikilte","Attra_Type":"Archaeological","NEAR_FID":155,"NEAR_DIST":0.262161890648}},{"type":"Feature","id":37,"geometry":{"type":"Point","coordinates":[38.797620803415697,14.064689131224393,2084,null]},"properties":{"FID":37,"SN":38,"Name":"Melazo","X_Easting":478151,"Y_Northing":1554890,"Z":2084,"Woreda_Nam":"Laelay Machew","Attra_Type":"Archaeological","NEAR_FID":51,"NEAR_DIST":648.28278404800005}},{"type":"Feature","id":38,"geometry":{"type":"Point","coordinates":[38.89862310909718,14.16329126495558,1880,null]},"properties":{"FID":38,"SN":39,"Name":"Medhane Alem Adwa","X_Easting":489060,"Y_Northing":1565788,"Z":1880,"Woreda_Nam":"Adwa","Attra_Type":"Church","NEAR_FID":690,"NEAR_DIST":8.5814972476799998}},{"type":"Feature","id":39,"geometry":{"type":"Point","coordinates":[38.965146523211857,14.113480278809817,2050,null]},"properties":{"FID":39,"SN":40,"Name":"Akbetsa Teklehaimanot","X_Easting":496238,"Y_Northing":1560277,"Z":2050,"Woreda_Nam":"Rural Adwa","Attra_Type":"Church","NEAR_FID":4059,"NEAR_DIST":133.728300593}},{"type":"Feature","id":40,"geometry":{"type":"Point","coordinates":[38.907493735986982,14.157182546324174,1890,null]},"properties":{"FID":40,"SN":41,"Name":"Debreberhan Selassie","X_Easting":490017,"Y_Northing":1565112,"Z":1890,"Woreda_Nam":"Adwa","Attra_Type":"Church","NEAR_FID":2148,"NEAR_DIST":136.114070172}},{"type":"Feature","id":41,"geometry":{"type":"Point","coordinates":[38.874077950845482,14.193072518291526,1980,null]},"properties":{"FID":41,"SN":42,"Name":"Teklehaimanot Addi Abun","X_Easting":486413,"Y_Northing":1569083,"Z":1980,"Woreda_Nam":"Adwa","Attra_Type":"Church","NEAR_FID":2172,"NEAR_DIST":7.1351820409800002}},{"type":"Feature","id":42,"geometry":{"type":"Point","coordinates":[38.657799703157778,13.954067255064951,0,null]},"properties":{"FID":42,"SN":43,"Name":"Gebriel Kenef","X_Easting":463038,"Y_Northing":1542673,"Z":0,"Woreda_Nam":"Adet","Attra_Type":"Church","NEAR_FID":3505,"NEAR_DIST":122.07429972}},{"type":"Feature","id":43,"geometry":{"type":"Point","coordinates":[39.122873620765318,13.579479761462775,2639,null]},"properties":{"FID":43,"SN":44,"Name":"Mariam Koraro","X_Easting":513293,"Y_Northing":1501223,"Z":2639,"Woreda_Nam":"Degua Temben","Attra_Type":"Church","NEAR_FID":1326,"NEAR_DIST":276.78681973300002}},{"type":"Feature","id":44,"geometry":{"type":"Point","coordinates":[38.879057517174495,14.170407183423862,1981,null]},"properties":{"FID":44,"SN":45,"Name":"Enda Giorgis Adwa","X_Easting":486949,"Y_Northing":1566576,"Z":1981,"Woreda_Nam":"Adwa","Attra_Type":"Church","NEAR_FID":1315,"NEAR_DIST":24.5736399822}},{"type":"Feature","id":45,"geometry":{"type":"Point","coordinates":[39.128285478905205,13.639192147686572,2508,null]},"properties":{"FID":45,"SN":46,"Name":"Melfa","X_Easting":513875,"Y_Northing":1507827,"Z":2508,"Woreda_Nam":"Degua Temben","Attra_Type":"Church","NEAR_FID":2658,"NEAR_DIST":190.80808100100001}},{"type":"Feature","id":46,"geometry":{"type":"Point","coordinates":[38.999676269966614,13.731944280954094,1949,null]},"properties":{"FID":46,"SN":47,"Name":"Workamba","X_Easting":499965,"Y_Northing":1518081,"Z":1949,"Woreda_Nam":"Kola Temben","Attra_Type":"Church","NEAR_FID":3705,"NEAR_DIST":26.531316911099999}},{"type":"Feature","id":47,"geometry":{"type":"Point","coordinates":[38.7165518454607,14.127095664407625,2152,null]},"properties":{"FID":47,"SN":48,"Name":"Arbaetu Ensesa","X_Easting":469407,"Y_Northing":1561801,"Z":2152,"Woreda_Nam":"Aksum","Attra_Type":"Church","NEAR_FID":1253,"NEAR_DIST":3.0963379889199998}},{"type":"Feature","id":48,"geometry":{"type":"Point","coordinates":[38.720229661820255,14.150934121601274,2173.53999999999,null]},"properties":{"FID":48,"SN":49,"Name":"Mai Kirah","X_Easting":469807.09999999998,"Y_Northing":1564436.997,"Z":2173.54,"Woreda_Nam":"Aksum","Attra_Type":"Church","NEAR_FID":3967,"NEAR_DIST":66.986110272700003}},{"type":"Feature","id":49,"geometry":{"type":"Point","coordinates":[38.709672804216169,14.137847196275318,2284,null]},"properties":{"FID":49,"SN":50,"Name":"BeteGergios Church","X_Easting":468666,"Y_Northing":1562991,"Z":2284,"Woreda_Nam":"Aksum","Attra_Type":"Church","NEAR_FID":2156,"NEAR_DIST":216.98826152800001}},{"type":"Feature","id":50,"geometry":{"type":"Point","coordinates":[38.777193183136802,14.030103962437664,2098,null]},"properties":{"FID":50,"SN":51,"Name":"Mahibere Tsedikan Deguea","X_Easting":475942,"Y_Northing":1551067,"Z":2098,"Woreda_Nam":"Dego","Attra_Type":"Church","NEAR_FID":51,"NEAR_DIST":212.385158641}},{"type":"Feature","id":51,"geometry":{"type":"Point","coordinates":[38.724711265058986,14.13790945652708,2200.3600000000001,null]},"properties":{"FID":51,"SN":52,"Name":"Kidanemihret Site","X_Easting":470289.06800000003,"Y_Northing":1562995.929,"Z":2200.3600000000001,"Woreda_Nam":"Aksum","Attra_Type":"Church","NEAR_FID":1799,"NEAR_DIST":93.549940427199999}},{"type":"Feature","id":52,"geometry":{"type":"Point","coordinates":[39.15377143056223,13.660535417729479,2487,null]},"properties":{"FID":52,"SN":53,"Name":"Adi Gezaeti/Mewaferi EPRDF","X_Easting":516630,"Y_Northing":1510189,"Z":2487,"Woreda_Nam":"Degua Temben","Attra_Type":"Historical","NEAR_FID":2659,"NEAR_DIST":688.82214722100002}},{"type":"Feature","id":53,"geometry":{"type":"Point","coordinates":[39.022770491992688,13.715323666933765,1883,null]},"properties":{"FID":53,"SN":54,"Name":"Wersege Italian Cemetry","X_Easting":502462,"Y_Northing":1516243,"Z":1883,"Woreda_Nam":"Kola Temben","Attra_Type":"Historical","NEAR_FID":3266,"NEAR_DIST":17.199647351599999}},{"type":"Feature","id":54,"geometry":{"type":"Point","coordinates":[38.906507345890319,14.189958894294493,2600,null]},"properties":{"FID":54,"SN":55,"Name":"Adwa Mountains","X_Easting":489912,"Y_Northing":1568737,"Z":2600,"Woreda_Nam":"Adwa","Attra_Type":"Historical","NEAR_FID":366,"NEAR_DIST":1302.1878882799999}},{"type":"Feature","id":55,"geometry":{"type":"Point","coordinates":[38.719409097559726,14.131710334528732,2166,null]},"properties":{"FID":55,"SN":56,"Name":"Axum Stelae Park","X_Easting":469716,"Y_Northing":1562311,"Z":2166,"Woreda_Nam":"Aksum","Attra_Type":"Historical","NEAR_FID":445,"NEAR_DIST":17.4038010485}},{"type":"Feature","id":56,"geometry":{"type":"Point","coordinates":[38.725255242559271,14.124208630896515,2165,null]},"properties":{"FID":56,"SN":57,"Name":"Ezana Park","X_Easting":470346.00400000002,"Y_Northing":1561480.585,"Z":2165,"Woreda_Nam":"Aksum","Attra_Type":"Historical","NEAR_FID":52,"NEAR_DIST":17.5370421346}},{"type":"Feature","id":57,"geometry":{"type":"Point","coordinates":[38.722203022895663,14.126028632890593,2155.5500000000002,null]},"properties":{"FID":57,"SN":58,"Name":"Tourist Center","X_Easting":470016.80499999999,"Y_Northing":1561682.26,"Z":2155.5500000000002,"Woreda_Nam":"Aksum","Attra_Type":"Historical","NEAR_FID":2812,"NEAR_DIST":4.2204824051000003}},{"type":"Feature","id":58,"geometry":{"type":"Point","coordinates":[38.722105545424796,14.127136286482465,2142.0300000000002,null]},"properties":{"FID":58,"SN":59,"Name":"Axumite Heritage foundation compound","X_Easting":470006.429,"Y_Northing":1561804.7760000001,"Z":2142.0300000000002,"Woreda_Nam":"Aksum","Attra_Type":"Historical","NEAR_FID":1659,"NEAR_DIST":80.886090899600006}},{"type":"Feature","id":59,"geometry":{"type":"Point","coordinates":[38.721221251907998,14.130339833011366,2149.8099999999899,null]},"properties":{"FID":59,"SN":60,"Name":"Unfinished Rock Cut structure","X_Easting":469911.40600000002,"Y_Northing":1562159.193,"Z":2149.8099999999999,"Woreda_Nam":"Aksum","Attra_Type":"Historical","NEAR_FID":919,"NEAR_DIST":37.073429134199998}},{"type":"Feature","id":60,"geometry":{"type":"Point","coordinates":[38.722110345709758,14.132053515462113,2175.9699999999898,null]},"properties":{"FID":60,"SN":61,"Name":"Yeha Hotel","X_Easting":470007.59100000001,"Y_Northing":1562348.608,"Z":2175.9699999999998,"Woreda_Nam":"Aksum","Attra_Type":"Historical","NEAR_FID":919,"NEAR_DIST":130.59366554100001}},{"type":"Feature","id":61,"geometry":{"type":"Point","coordinates":[38.721355415508846,14.133687417923676,2157.0799999999899,null]},"properties":{"FID":61,"SN":62,"Name":"Mai Shum Reservoir","X_Easting":469926.326,"Y_Northing":1562529.4099999999,"Z":2157.0799999999999,"Woreda_Nam":"Aksum","Attra_Type":"Historical","NEAR_FID":37,"NEAR_DIST":23.209266502599998}},{"type":"Feature","id":62,"geometry":{"type":"Point","coordinates":[38.712598485688481,14.127253843360572,2147.0999999999899,null]},"properties":{"FID":62,"SN":63,"Name":"Adi Kilte (Old town)","X_Easting":468980.326,"Y_Northing":1561819.013,"Z":2147.0999999999999,"Woreda_Nam":"Aksum","Attra_Type":"Historical","NEAR_FID":191,"NEAR_DIST":49.583236519899998}},{"type":"Feature","id":63,"geometry":{"type":"Point","coordinates":[38.706439599555807,14.125908011795691,2131.8600000000001,null]},"properties":{"FID":63,"SN":64,"Name":"Gudit Field","X_Easting":468315.397,"Y_Northing":1561670.99,"Z":2131.8600000000001,"Woreda_Nam":"Aksum","Attra_Type":"Historical","NEAR_FID":2361,"NEAR_DIST":22.941219292}},{"type":"Feature","id":64,"geometry":{"type":"Point","coordinates":[38.680461571874829,14.114270900744783,2136.0900000000001,null]},"properties":{"FID":64,"SN":65,"Name":"Gobo Dura Site","X_Easting":465509.75699999998,"Y_Northing":1560387.6140000001,"Z":2136.0900000000001,"Woreda_Nam":"Aksum","Attra_Type":"Historical","NEAR_FID":923,"NEAR_DIST":600.07100642499995}},{"type":"Feature","id":65,"geometry":{"type":"Point","coordinates":[38.687833892709762,14.134764863876418,2187.4400000000001,null]},"properties":{"FID":65,"SN":66,"Name":"Gual Gobo Dura","X_Easting":466308.52899999998,"Y_Northing":1562653.128,"Z":2187.4400000000001,"Woreda_Nam":"Aksum","Attra_Type":"Historical","NEAR_FID":923,"NEAR_DIST":1728.64378369}},{"type":"Feature","id":66,"geometry":{"type":"Point","coordinates":[38.719695525332213,14.128120376126747,2153.4400000000001,null]},"properties":{"FID":66,"SN":67,"Name":"Enda Rasi Hand Craft Center","X_Easting":469746.44,"Y_Northing":1561913.923,"Z":2153.4400000000001,"Woreda_Nam":"Aksum","Attra_Type":"Historical","NEAR_FID":168,"NEAR_DIST":30.898176262100002}},{"type":"Feature","id":67,"geometry":{"type":"Point","coordinates":[38.722878742365488,14.137794699049564,2172.4899999999898,null]},"properties":{"FID":67,"SN":68,"Name":"Northern Ezana Inscription","X_Easting":470091.27399999998,"Y_Northing":1562983.47,"Z":2172.4899999999998,"Woreda_Nam":"Aksum","Attra_Type":"Historical","NEAR_FID":37,"NEAR_DIST":6.3145776975399999}},{"type":"Feature","id":68,"geometry":{"type":"Point","coordinates":[38.717175000045934,14.130213333554735,2134.6999999999898,null]},"properties":{"FID":68,"SN":69,"Name":"Bete Ketine","X_Easting":469474.674,"Y_Northing":1562145.7250000001,"Z":2134.6999999999998,"Woreda_Nam":"Aksum","Attra_Type":"Historical","NEAR_FID":879,"NEAR_DIST":4.2226497862899999}},{"type":"Feature","id":69,"geometry":{"type":"Point","coordinates":[38.717440003747228,14.130024996892748,2147.1999999999898,null]},"properties":{"FID":69,"SN":70,"Name":"Murade Kalle","X_Easting":469503.25099999999,"Y_Northing":1562124.861,"Z":2147.1999999999998,"Woreda_Nam":"Aksum","Attra_Type":"Historical","NEAR_FID":445,"NEAR_DIST":5.2478913714399997}},{"type":"Feature","id":70,"geometry":{"type":"Point","coordinates":[38.693009480759549,14.168414792269871,2133,null]},"properties":{"FID":70,"SN":71,"Name":"Adi Tsehafi rock Cut Cistern 1","X_Easting":466872,"Y_Northing":1566374,"Z":2133,"Woreda_Nam":"Laelay Machew","Attra_Type":"Historical","NEAR_FID":3963,"NEAR_DIST":319.97975436500002}},{"type":"Feature","id":71,"geometry":{"type":"Point","coordinates":[38.722597086232419,14.128703862395179,2245.5700000000002,null]},"properties":{"FID":71,"SN":72,"Name":"Mai Kuho","X_Easting":470059.68699999998,"Y_Northing":1561978.0830000001,"Z":2245.5700000000002,"Woreda_Nam":"Aksum","Attra_Type":"Historical","NEAR_FID":873,"NEAR_DIST":144.10542694}},{"type":"Feature","id":72,"geometry":{"type":"Point","coordinates":[38.70373071275241,14.053219030794343,2015.9300000000001,null]},"properties":{"FID":72,"SN":73,"Name":"Abaa Libanos Monastery","X_Easting":468012.89899999998,"Y_Northing":1553632.162,"Z":2015.9300000000001,"Woreda_Nam":"Aksum","Attra_Type":"Monastery","NEAR_FID":2612,"NEAR_DIST":1727.8160094899999}},{"type":"Feature","id":73,"geometry":{"type":"Point","coordinates":[38.658629835453596,14.140815315707243,2194.8499999999899,null]},"properties":{"FID":73,"SN":74,"Name":"Eyerawi Michael Monastery","X_Easting":463157.53499999997,"Y_Northing":1563326.686,"Z":2194.8499999999999,"Woreda_Nam":"Aksum","Attra_Type":"Monastery","NEAR_FID":4149,"NEAR_DIST":2442.0749385300001}},{"type":"Feature","id":74,"geometry":{"type":"Point","coordinates":[38.719673819790124,14.130699760641312,2145.2399999999898,null]},"properties":{"FID":74,"SN":75,"Name":"Tsion Mariam Church","X_Easting":469744.43800000002,"Y_Northing":1562199.199,"Z":2145.2399999999998,"Woreda_Nam":"Aksum","Attra_Type":"Monastery","NEAR_FID":445,"NEAR_DIST":40.543499113199999}},{"type":"Feature","id":75,"geometry":{"type":"Point","coordinates":[39.019006874640716,14.286371205602832,2150,null]},"properties":{"FID":75,"SN":76,"Name":"Abune Aftse","X_Easting":502050,"Y_Northing":1579398,"Z":2150,"Woreda_Nam":" Ahsea","Attra_Type":"Monastery","NEAR_FID":1134,"NEAR_DIST":17.953363143499999}},{"type":"Feature","id":76,"geometry":{"type":"Point","coordinates":[38.799115391632441,13.607912211796553,1960,null]},"properties":{"FID":76,"SN":77,"Name":"Abune Likanos/Libanos","X_Easting":478270,"Y_Northing":1504373,"Z":1960,"Woreda_Nam":"Aksum","Attra_Type":"Monastery","NEAR_FID":3023,"NEAR_DIST":123.09649471900001}},{"type":"Feature","id":77,"geometry":{"type":"Point","coordinates":[39.092150882407012,13.562186037415271,2035,null]},"properties":{"FID":77,"SN":78,"Name":"Menewe Alula's Birth Place","X_Easting":509970,"Y_Northing":1499309,"Z":2035,"Woreda_Nam":"Degua Temben","Attra_Type":"Monastery","NEAR_FID":0,"NEAR_DIST":36.652694160800003}},{"type":"Feature","id":78,"geometry":{"type":"Point","coordinates":[39.075861554442213,14.038070165687184,1994,null]},"properties":{"FID":78,"SN":79,"Name":"Enda Abba Tsahma","X_Easting":508191,"Y_Northing":1551938,"Z":1994,"Woreda_Nam":"Edaga Ari","Attra_Type":"Monastery","NEAR_FID":766,"NEAR_DIST":3.5821344114100002}},{"type":"Feature","id":79,"geometry":{"type":"Point","coordinates":[38.953009358588169,14.161165153140173,2178,null]},"properties":{"FID":79,"SN":80,"Name":"Enda Aba Gerima","X_Easting":494929,"Y_Northing":1565551,"Z":2178,"Woreda_Nam":"Rural Adwa","Attra_Type":"Monastery","NEAR_FID":1178,"NEAR_DIST":147.198728136}},{"type":"Feature","id":80,"geometry":{"type":"Point","coordinates":[38.616060422588923,14.178530130862862,2350,null]},"properties":{"FID":80,"SN":81,"Name":"Debre Benkol","X_Easting":458570,"Y_Northing":1567505,"Z":2350,"Woreda_Nam":"Tahtay Machew","Attra_Type":"Monastery","NEAR_FID":171,"NEAR_DIST":993.39335326900004}},{"type":"Feature","id":81,"geometry":{"type":"Point","coordinates":[38.718172406280388,14.127766662134826,2152,null]},"properties":{"FID":81,"SN":82,"Name":"Maryam Tsion Church","X_Easting":469582,"Y_Northing":1561875,"Z":2152,"Woreda_Nam":"Aksum","Attra_Type":"Monastery","NEAR_FID":1671,"NEAR_DIST":6.8623040307699998}},{"type":"Feature","id":82,"geometry":{"type":"Point","coordinates":[38.938793977914962,13.706121214497404,1200,null]},"properties":{"FID":82,"SN":83,"Name":"Abba Yohanni","X_Easting":493382,"Y_Northing":1515226,"Z":1200,"Woreda_Nam":"Kola Temben","Attra_Type":"Monastery","NEAR_FID":3623,"NEAR_DIST":362.78453518399999}},{"type":"Feature","id":83,"geometry":{"type":"Point","coordinates":[39.301737420008166,14.127127668313332,2079,null]},"properties":{"FID":83,"SN":84,"Name":"Wukro Mariam","X_Easting":532567,"Y_Northing":1561807,"Z":2079,"Woreda_Nam":"Embaseneyti","Attra_Type":"Monastery","NEAR_FID":1186,"NEAR_DIST":56.555204576199998}},{"type":"Feature","id":84,"geometry":{"type":"Point","coordinates":[38.743201604703337,14.134756334933877,2275.6700000000001,null]},"properties":{"FID":84,"SN":85,"Name":"Abba Penteleon Monastery","X_Easting":472284.29499999998,"Y_Northing":1562644.939,"Z":2275.6700000000001,"Woreda_Nam":"Aksum","Attra_Type":"Monastery","NEAR_FID":1799,"NEAR_DIST":241.95845520899999}},{"type":"Feature","id":85,"geometry":{"type":"Point","coordinates":[38.733171718274335,14.140067312089441,2347.3600000000001,null]},"properties":{"FID":85,"SN":86,"Name":"Abba Liqanos Monastery","X_Easting":471202.45199999999,"Y_Northing":1563233.527,"Z":2347.3600000000001,"Woreda_Nam":"Aksum","Attra_Type":"Monastery","NEAR_FID":2608,"NEAR_DIST":287.41544901100002}},{"type":"Feature","id":86,"geometry":{"type":"Point","coordinates":[38.692140933263801,14.166542035720969,2134,null]},"properties":{"FID":86,"SN":87,"Name":"Adi Tsehafi arbaetu ensisa","X_Easting":466778,"Y_Northing":1566167,"Z":2134,"Woreda_Nam":"Aksum","Attra_Type":"Natural Recreation","NEAR_FID":3963,"NEAR_DIST":96.540739848499996}},{"type":"Feature","id":87,"geometry":{"type":"Point","coordinates":[38.729208562615767,14.142228146948383,2260,null]},"properties":{"FID":87,"SN":88,"Name":"Tomb of Kaleb and G/Meskel","X_Easting":470775,"Y_Northing":1563473,"Z":2260,"Woreda_Nam":"Aksum","Attra_Type":"Palace","NEAR_FID":2608,"NEAR_DIST":34.147780781599998}},{"type":"Feature","id":88,"geometry":{"type":"Point","coordinates":[38.713192036380448,14.125009219100081,2130.6100000000001,null]},"properties":{"FID":88,"SN":89,"Name":"Ta'akha Mariam Palace","X_Easting":469044.08600000001,"Y_Northing":1561570.6850000001,"Z":2130.6100000000001,"Woreda_Nam":"Aksum","Attra_Type":"Palace","NEAR_FID":2703,"NEAR_DIST":35.1429485082}},{"type":"Feature","id":89,"geometry":{"type":"Point","coordinates":[38.71475838226435,14.12659475329402,2139.3400000000001,null]},"properties":{"FID":89,"SN":90,"Name":"Enda Semoun Palace","X_Easting":469213.35999999999,"Y_Northing":1561745.835,"Z":2139.3400000000001,"Woreda_Nam":"Aksum","Attra_Type":"Palace","NEAR_FID":162,"NEAR_DIST":21.180876361199999}},{"type":"Feature","id":90,"geometry":{"type":"Point","coordinates":[38.714332318660155,14.128208137067393,2144.5,null]},"properties":{"FID":90,"SN":91,"Name":"Enda Michael Palace","X_Easting":469167.59100000001,"Y_Northing":1561924.327,"Z":2144.5,"Woreda_Nam":"Aksum","Attra_Type":"Palace","NEAR_FID":184,"NEAR_DIST":7.47144543905}},{"type":"Feature","id":91,"geometry":{"type":"Point","coordinates":[39.018969727458668,14.285647866016706,2150,null]},"properties":{"FID":91,"SN":92,"Name":"Yeha Temple","X_Easting":502046,"Y_Northing":1579318,"Z":2150,"Woreda_Nam":"Ahsea","Attra_Type":"Palace","NEAR_FID":1109,"NEAR_DIST":30.9792987897}},{"type":"Feature","id":92,"geometry":{"type":"Point","coordinates":[38.718172406280388,14.127766662134826,2152,null]},"properties":{"FID":92,"SN":93,"Name":"Axum Tsion Mariam","X_Easting":469582,"Y_Northing":1561875,"Z":2152,"Woreda_Nam":"Aksum","Attra_Type":"Monastery","NEAR_FID":1671,"NEAR_DIST":6.8623040307699998}}]}